{"text": "Tiddybress \ud83d\ude02 https://t.co/8EmpVk0yPF", "created_at": "Sat May 27 23:39:17 +0000 2017", "s_magnitude": 0.3, "lat": 41.8815285, "lng": -87.84391500000001, "s_score": 0.3, "place_name": "Maywood"}
{"text": "It's not just you https://t.co/9OxBWvahVi", "created_at": "Sat May 27 23:39:39 +0000 2017", "s_magnitude": 0, "lat": 41.8239535, "lng": -87.846586, "s_score": 0, "place_name": "Brookfield"}
{"text": "#Blossom\ud83c\udf3b\ud83c\udf3b by: @HannahGotRaps is on @Spotify NOW !!!!!! https://t.co/KmOEpJJyKH #RT https://t.co/FqaG3lhyMX", "created_at": "Sat May 27 23:40:24 +0000 2017", "s_magnitude": 0.5, "lat": 41.6381905, "lng": -87.4788145, "s_score": 0.5, "place_name": "Hammond"}
{"text": "Holy collusion Batman! https://t.co/5giSqHwpft", "created_at": "Sat May 27 23:40:53 +0000 2017", "s_magnitude": 0.3, "lat": 41.8897245, "lng": -87.942283, "s_score": 0.3, "place_name": "Elmhurst"}
{"text": "\ud83c\udf3f\ud83c\udf38\ud83c\udf33\ud83c\udf07 https://t.co/oPLTK1MIt1", "created_at": "Sat May 27 23:41:05 +0000 2017", "s_magnitude": 0, "lat": 41.8897245, "lng": -87.942283, "s_score": 0, "place_name": "Elmhurst"}
{"text": "Baby yes \ud83d\udc4f\ud83c\udffe https://t.co/bR1E2foBKy", "created_at": "Sat May 27 23:41:26 +0000 2017", "s_magnitude": 0.5, "lat": 41.8815285, "lng": -87.84391500000001, "s_score": 0.5, "place_name": "Maywood"}
{"text": "@AnnKingman Best thing about Netflix is that there's so much opportunity to see international work.  Subtitles no l\u2026 https://t.co/TFDUqciEYO", "created_at": "Sat May 27 23:41:33 +0000 2017", "s_magnitude": 1.3, "lat": 41.6381905, "lng": -87.4788145, "s_score": 0, "place_name": "Hammond"}
{"text": "Yes https://t.co/crxIg2tNIU", "created_at": "Sat May 27 23:41:46 +0000 2017", "s_magnitude": 0.2, "lat": 41.8815285, "lng": -87.84391500000001, "s_score": 0.2, "place_name": "Maywood"}
{"text": "#IGotTheWarriors as my team! Who do you got? #NBAFinals https://t.co/B5Wrqb0jY3", "created_at": "Sat May 27 23:41:51 +0000 2017", "s_magnitude": 0.5, "lat": 41.625514, "lng": -87.603308, "s_score": 0, "place_name": "Dolton"}
{"text": "YES, yes, &amp; hell yes. Without personal #narrative there can be no power of #folkloric memory as historical\u2026 https://t.co/wtYBmrx5eL", "created_at": "Sat May 27 23:42:09 +0000 2017", "s_magnitude": 1, "lat": 41.745559, "lng": -87.9256775, "s_score": 0, "place_name": "Burr Ridge"}
{"text": "These \"respecting women\" memes are really fucking annoying", "created_at": "Sat May 27 23:42:20 +0000 2017", "s_magnitude": 0.5, "lat": 42.045437, "lng": -87.6991955, "s_score": -0.5, "place_name": "Evanston"}
{"text": "Awe you went to MLK congrats boo https://t.co/w2mre398z9", "created_at": "Sat May 27 23:42:48 +0000 2017", "s_magnitude": 0.5, "lat": 41.8815285, "lng": -87.84391500000001, "s_score": 0.5, "place_name": "Maywood"}
{"text": "Ah Dr. M, we miss you.... https://t.co/eBAeR6GGhl", "created_at": "Sat May 27 23:43:17 +0000 2017", "s_magnitude": 0.2, "lat": 41.745559, "lng": -87.9256775, "s_score": 0.1, "place_name": "Burr Ridge"}
{"text": "By the time the day's over my TV will have been on longer than it ever has. #SoxSoxCubs #Baseball @whitesox @cubs #24innings", "created_at": "Sat May 27 23:43:18 +0000 2017", "s_magnitude": 0.4, "lat": 41.609234, "lng": -87.7547855, "s_score": 0.2, "place_name": "Oak Forest"}
{"text": "Uruguay, the first country where you can smoke marijuana wherever you like\n\nhttps://t.co/dH4iqMJZBO", "created_at": "Sat May 27 23:43:26 +0000 2017", "s_magnitude": 0.8, "lat": 41.991771, "lng": -87.8757025, "s_score": 0.4, "place_name": "Rosemont"}
{"text": "Definitely my hardest goodbye this summer \ud83d\ude2d @ Oakbrook Center https://t.co/pmtLUpDdEQ", "created_at": "Sat May 27 23:43:37 +0000 2017", "s_magnitude": 0.3, "lat": 41.837267, "lng": -87.9519485, "s_score": -0.3, "place_name": "Oak Brook"}
{"text": "@monovalent Omg", "created_at": "Sat May 27 23:43:40 +0000 2017", "s_magnitude": 0.2, "lat": 41.946866, "lng": -87.652168, "s_score": 0.2, "place_name": "Lake View"}
{"text": "I'm excited to see the #cbcaliasgrace sneak peek! https://t.co/eAHxY3q0ni", "created_at": "Sat May 27 23:44:04 +0000 2017", "s_magnitude": 0.6, "lat": 41.7370155, "lng": -87.8077645, "s_score": 0.6, "place_name": "Bridgeview"}
{"text": "Darryl and Tom #CenteronHalsted https://t.co/pOGEFK1rzg", "created_at": "Sat May 27 23:44:05 +0000 2017", "s_magnitude": 0.1, "lat": 41.948801, "lng": -87.649705, "s_score": 0.1, "place_name": "Center on Halsted"}
{"text": "We only ever get asked if we're twins when we do our hair the same way \ud83d\udc6f https://t.co/hpFzc9OjLE", "created_at": "Sat May 27 23:44:15 +0000 2017", "s_magnitude": 0.1, "lat": 41.963744, "lng": -87.823913, "s_score": -0.1, "place_name": "Norridge"}
