{"text": "Why does the library have so many floors? ..........", "created_at": "Sun May 28 00:00:28 +0000 2017", "s_magnitude": 0.4, "lat": 41.8871295, "lng": -87.78990049999999, "s_score": -0.4, "place_name": "Oak Park"}
{"text": "..... it's full of stories...", "created_at": "Sun May 28 00:00:51 +0000 2017", "s_magnitude": 0.1, "lat": 41.8871295, "lng": -87.78990049999999, "s_score": 0.1, "place_name": "Oak Park"}
{"text": "I dead ass want my real estate license \ud83d\udcaf\ud83d\ude0f but to sit in a class for 3 hours jo \ud83d\ude29", "created_at": "Sun May 28 00:01:31 +0000 2017", "s_magnitude": 0.3, "lat": 41.864918, "lng": -87.9010855, "s_score": -0.3, "place_name": "Hillside"}
{"text": "Hi Chi. https://t.co/jClDVgiAVd", "created_at": "Sun May 28 00:03:13 +0000 2017", "s_magnitude": 0.2, "lat": 41.881155, "lng": -87.624572, "s_score": 0.2, "place_name": "Cindy's"}
{"text": "Puzzled how I haven't gotten a new tattoo in FIVE YEARS", "created_at": "Sun May 28 00:03:53 +0000 2017", "s_magnitude": 0.3, "lat": 41.609234, "lng": -87.7547855, "s_score": -0.3, "place_name": "Oak Forest"}
{"text": "sorry y'all got the blue", "created_at": "Sun May 28 00:04:29 +0000 2017", "s_magnitude": 0.2, "lat": 42.039429, "lng": -87.793835, "s_score": 0.2, "place_name": "Morton Grove"}
{"text": "I be lookin fat omg", "created_at": "Sun May 28 00:04:55 +0000 2017", "s_magnitude": 0.1, "lat": 41.90239, "lng": -87.8789605, "s_score": 0.1, "place_name": "Stone Park"}
{"text": "this seems like an oversimplification of human emotion but ok https://t.co/vsBmxMDdFK", "created_at": "Sun May 28 00:05:22 +0000 2017", "s_magnitude": 0.1, "lat": 42.045437, "lng": -87.6991955, "s_score": 0.1, "place_name": "Evanston"}
{"text": "This little girl really just threw her milk carton outta the window \ud83d\ude05\ud83d\udca9", "created_at": "Sun May 28 00:05:28 +0000 2017", "s_magnitude": 0.3, "lat": 41.829648500000005, "lng": -87.81740199999999, "s_score": -0.3, "place_name": "Riverside"}
