{"text": "who hurt you https://t.co/ihxU8v5PiJ", "created_at": "Sun May 28 06:25:27 +0000 2017", "s_magnitude": 0.1, "lat": 41.7208135, "lng": -87.701781, "s_score": 0.1, "place_name": "Evergreen Park"}
{"text": "eric trump needs to cnnt to pippa and James Matthews .....      https://t.co/y67HVSboII", "created_at": "Sun May 28 06:25:34 +0000 2017", "s_magnitude": 0, "lat": 41.8815285, "lng": -87.84391500000001, "s_score": 0, "place_name": "Maywood"}
{"text": "@AOs_FlightSkool Im bout to go", "created_at": "Sun May 28 06:26:09 +0000 2017", "s_magnitude": 0.2, "lat": 41.6709845, "lng": -87.736709, "s_score": 0.2, "place_name": "Alsip"}
{"text": "someone new\ud83d\udcf2\ud83d\udcf2\ud83d\udcf2\ud83d\udcf2", "created_at": "Sun May 28 06:26:14 +0000 2017", "s_magnitude": 0.6, "lat": 41.604577, "lng": -87.8512035, "s_score": 0.6, "place_name": "Orland Park"}
{"text": "sessions and eric trump needs to xnnt to. James and pipoa the ruic coud had pldg a frat. at.    Wharton https://t.co/y67HVSboII", "created_at": "Sun May 28 06:26:21 +0000 2017", "s_magnitude": 0.8, "lat": 41.8815285, "lng": -87.84391500000001, "s_score": 0.2, "place_name": "Maywood"}
{"text": "its Scottish and not Russian ttp://www.mediaite.com/tv/eric-trump-russia-controversy-is-a-total-hoax/amp/", "created_at": "Sun May 28 06:26:56 +0000 2017", "s_magnitude": 0.3, "lat": 41.8815285, "lng": -87.84391500000001, "s_score": -0.3, "place_name": "Maywood"}
{"text": "Your love https://t.co/GRgcSWsfG3", "created_at": "Sun May 28 06:28:02 +0000 2017", "s_magnitude": 0.4, "lat": 41.8871295, "lng": -87.78990049999999, "s_score": 0.4, "place_name": "Oak Park"}
{"text": "I AGREE https://t.co/VdAOkLIDOI", "created_at": "Sun May 28 06:28:21 +0000 2017", "s_magnitude": 0.1, "lat": 41.8871295, "lng": -87.78990049999999, "s_score": 0.1, "place_name": "Oak Park"}
{"text": "\ud83d\ude0d\ud83d\ude0d\ud83d\ude0d\ud83d\ude0d\ud83d\ude0d https://t.co/NgQdECEJsH", "created_at": "Sun May 28 06:28:40 +0000 2017", "s_magnitude": 0.6, "lat": 41.843776, "lng": -87.75880049999999, "s_score": 0.6, "place_name": "Cicero"}
{"text": "its Scottish and not Russian https://t.co/y67HVSboII", "created_at": "Sun May 28 06:28:44 +0000 2017", "s_magnitude": 0.3, "lat": 41.8815285, "lng": -87.84391500000001, "s_score": -0.3, "place_name": "Maywood"}
{"text": "I'll never forget when Kevin told our manager he cnt work Sundays cus he was starting church school just so he can stay and watch football", "created_at": "Sun May 28 06:28:45 +0000 2017", "s_magnitude": 0.1, "lat": 41.843776, "lng": -87.75880049999999, "s_score": 0.1, "place_name": "Cicero"}
{"text": "@PutMeInnCoach \ud83d\ude02\ud83d\ude02\ud83d\ude02 https://t.co/kJKUufFYUV", "created_at": "Sun May 28 06:29:23 +0000 2017", "s_magnitude": 0.4, "lat": 41.868485, "lng": -87.818785, "s_score": 0.4, "place_name": "Forest Park"}
{"text": "Staying up late is bad habit that I have no purpose for at this point", "created_at": "Sun May 28 06:29:32 +0000 2017", "s_magnitude": 0.5, "lat": 41.843776, "lng": -87.75880049999999, "s_score": -0.5, "place_name": "Cicero"}
{"text": "Rock n the Grove 2 nite!! \u266b #iHeartRadio #NowPlaying https://t.co/TZWgeUEfRh https://t.co/a390GbNVrH", "created_at": "Sun May 28 06:29:40 +0000 2017", "s_magnitude": 0.3, "lat": 41.9230375, "lng": -87.83889500000001, "s_score": 0.3, "place_name": "River Grove"}
