{"text": "Hoes fake \ud83d\ude02\ud83d\udcaf", "created_at": "Sun May 28 01:47:43 +0000 2017", "s_magnitude": 0, "lat": 41.613146, "lng": -87.5520725, "s_score": 0, "place_name": "Calumet City"}
{"text": "@realDonaldTrump You've lied again", "created_at": "Sun May 28 01:47:52 +0000 2017", "s_magnitude": 0.8, "lat": 42.039429, "lng": -87.793835, "s_score": -0.8, "place_name": "Morton Grove"}
{"text": "Beautiful day!! https://t.co/P03AjAi56x", "created_at": "Sun May 28 01:48:02 +0000 2017", "s_magnitude": 0.7, "lat": 41.882449, "lng": -87.61986, "s_score": 0.7, "place_name": "Maggie Daley Park"}
{"text": "@JimmyBannosJr cooking #breakfast on @WGNNews tomorrow morning (7-8am). We would love your support to watch or DVR.\u2026 https://t.co/qBq4jbxytN", "created_at": "Sun May 28 01:48:53 +0000 2017", "s_magnitude": 0.6, "lat": 41.837267, "lng": -87.9519485, "s_score": 0.3, "place_name": "Oak Brook"}
{"text": "Change on me for that cheddar", "created_at": "Sun May 28 01:49:01 +0000 2017", "s_magnitude": 0, "lat": 41.613146, "lng": -87.5520725, "s_score": 0, "place_name": "Calumet City"}
{"text": "@ArianaGrande performing at jingle ball in December 2016. \ud83c\udf8a\ud83c\udf89\ud83d\udc96\ud83d\udc95\u2764\ud83d\udc93 #weloveari4ever #WesupportAriana #SmileForAriana https://t.co/xuUk4VEwmd", "created_at": "Sun May 28 01:49:20 +0000 2017", "s_magnitude": 0.9, "lat": 41.9041755, "lng": -87.8638975, "s_score": 0.4, "place_name": "Melrose Park"}
{"text": "\ud83e\udd14\ud83d\ude15", "created_at": "Sun May 28 01:49:22 +0000 2017", "s_magnitude": 0.3, "lat": 42.045437, "lng": -87.6991955, "s_score": -0.3, "place_name": "Evanston"}
{"text": "Hope everyone enjoys themselves tonight with y'all dates \ud83d\ude0c\u2764\ufe0f", "created_at": "Sun May 28 01:49:29 +0000 2017", "s_magnitude": 0.6, "lat": 41.613146, "lng": -87.5520725, "s_score": 0.6, "place_name": "Calumet City"}
{"text": "@TheLastWord @Lawrence @MSNBC Thanks for remaining on-air, love you\u2764\u2764", "created_at": "Sun May 28 01:49:34 +0000 2017", "s_magnitude": 0.9, "lat": 41.871031, "lng": -87.626266, "s_score": 0.9, "place_name": "Burnham Plaza Mart"}
{"text": "https://t.co/Df96YGumFF", "created_at": "Sun May 28 01:50:27 +0000 2017", "s_magnitude": 0.1, "lat": 41.843776, "lng": -87.75880049999999, "s_score": 0.1, "place_name": "Cicero"}
{"text": "@BoogKnight2002 @davewiner @erikaheidewald @mathewi Omg. He doesn't even see it.", "created_at": "Sun May 28 01:50:30 +0000 2017", "s_magnitude": 1, "lat": 41.8940225, "lng": -87.81976350000001, "s_score": -0.2, "place_name": "River Forest"}
{"text": "Join us for guest dj vlad  house tonight @ Lollipop Lounge https://t.co/rOXxCli3w8", "created_at": "Sun May 28 01:50:39 +0000 2017", "s_magnitude": 0.7, "lat": 41.9593835, "lng": -87.8686855, "s_score": 0.7, "place_name": "Schiller Park"}
{"text": "@ArianaGrande performing at jingle ball 2016 in December. \ud83d\udc96\ud83d\udc95\u2764\ud83d\udc93 #weloveari4ever #WesupportAriana #SmileForAriana https://t.co/kZzoMQkEOR", "created_at": "Sun May 28 01:51:07 +0000 2017", "s_magnitude": 0.9, "lat": 41.9041755, "lng": -87.8638975, "s_score": 0.4, "place_name": "Melrose Park"}
{"text": "I'm really not trying to be in the crib tonight \ud83d\ude29\ud83d\ude29", "created_at": "Sun May 28 01:51:24 +0000 2017", "s_magnitude": 0.6, "lat": 41.747512, "lng": -87.837198, "s_score": -0.6, "place_name": "Justice"}
{"text": "Rondon Ks the side. So... that's good.", "created_at": "Sun May 28 01:51:40 +0000 2017", "s_magnitude": 0.8, "lat": 42.045437, "lng": -87.6991955, "s_score": 0.4, "place_name": "Evanston"}
{"text": "The ghetto slide.", "created_at": "Sun May 28 01:52:12 +0000 2017", "s_magnitude": 0.5, "lat": 41.8897245, "lng": -87.942283, "s_score": -0.5, "place_name": "Elmhurst"}
