{"text": "Ima have breakfast.\nI'm going to watch the sun set\nI'm going to vent.", "created_at": "Sun May 28 06:36:35 +0000 2017", "s_magnitude": 0.4, "lat": 41.625514, "lng": -87.603308, "s_score": 0.2, "place_name": "Dolton"}
{"text": "That clap back wasn't even necessary \ud83d\udc80\ud83d\udc80 https://t.co/stFPtuGdnZ", "created_at": "Sun May 28 06:36:50 +0000 2017", "s_magnitude": 0.6, "lat": 41.852759, "lng": -87.848248, "s_score": -0.6, "place_name": "Broadview"}
{"text": "That's all ya need to know", "created_at": "Sun May 28 06:37:12 +0000 2017", "s_magnitude": 0.2, "lat": 41.625514, "lng": -87.603308, "s_score": 0.2, "place_name": "Dolton"}
{"text": "FUCKKKK WWWOOOO", "created_at": "Sun May 28 06:37:20 +0000 2017", "s_magnitude": 0.1, "lat": 41.8815285, "lng": -87.84391500000001, "s_score": 0.1, "place_name": "Maywood"}
{"text": "I think Ima wear a dress and some cute sandals . It's the least I can do.", "created_at": "Sun May 28 06:37:42 +0000 2017", "s_magnitude": 0.5, "lat": 41.625514, "lng": -87.603308, "s_score": 0.2, "place_name": "Dolton"}
{"text": "@markusallen1 I fucking agree bro", "created_at": "Sun May 28 06:38:31 +0000 2017", "s_magnitude": 0.4, "lat": 41.8871295, "lng": -87.78990049999999, "s_score": -0.4, "place_name": "Oak Park"}
{"text": "Being single can have its perks......", "created_at": "Sun May 28 06:38:52 +0000 2017", "s_magnitude": 0.3, "lat": 41.625514, "lng": -87.603308, "s_score": 0.3, "place_name": "Dolton"}
{"text": "@shelbya_xo @Money_Myles_ lmao I was thinking about the other day #leardd", "created_at": "Sun May 28 06:39:17 +0000 2017", "s_magnitude": 0.1, "lat": 41.708954, "lng": -87.759533, "s_score": 0.1, "place_name": "Oak Lawn"}
{"text": "The good life \ud83d\ude0c @j_akef https://t.co/Tfrw9KiSkm", "created_at": "Sun May 28 06:39:16 +0000 2017", "s_magnitude": 0.7, "lat": 42.00254, "lng": -87.816188, "s_score": 0.7, "place_name": "Firewater Saloon"}
{"text": "I can't wait to wake up and look around and just see outside and myself and start my day", "created_at": "Sun May 28 06:39:40 +0000 2017", "s_magnitude": 0.3, "lat": 41.625514, "lng": -87.603308, "s_score": 0.3, "place_name": "Dolton"}
{"text": "@iLookLikeZedd Remember during turnabout when you took out a capri sun in case of an emergency and you started drinking during the dance \ud83d\ude2d\ud83d\ude02", "created_at": "Sun May 28 06:40:23 +0000 2017", "s_magnitude": 0.1, "lat": 41.604577, "lng": -87.8512035, "s_score": -0.1, "place_name": "Orland Park"}
{"text": "All I hear is the faint sound of \"paw\" because hannah is trying to train the cat at 1:30am??", "created_at": "Sun May 28 06:40:35 +0000 2017", "s_magnitude": 0.6, "lat": 41.604577, "lng": -87.8512035, "s_score": -0.6, "place_name": "Orland Park"}
{"text": "Tim meadows is my favorite war machine #mcu", "created_at": "Sun May 28 06:40:39 +0000 2017", "s_magnitude": 0.8, "lat": 41.962092999999996, "lng": -87.94166799999999, "s_score": 0.8, "place_name": "Bensenville"}
{"text": "Ima look back one day like \"wtf, why \" \ud83d\ude02\ud83d\ude02", "created_at": "Sun May 28 06:41:01 +0000 2017", "s_magnitude": 0.5, "lat": 41.625514, "lng": -87.603308, "s_score": -0.5, "place_name": "Dolton"}
