{"text": "Just posted a photo @ Schiller Park Animal Hospital https://t.co/KqRyjmiEEB", "created_at": "Sun May 28 16:20:08 +0000 2017", "s_magnitude": 0.4, "lat": 41.9346305, "lng": -87.884865, "s_score": 0.4, "id": "404d7db4-b170-4113-a693-ca658a50d804", "place_name": "Franklin Park"}
{"text": "Want to work in #ParkRidge, IL? View our latest opening: https://t.co/mctq9VBmHy #Engineering #Job #Jobs #Hiring #CareerArc", "created_at": "Sun May 28 16:20:28 +0000 2017", "s_magnitude": 0.8, "lat": 42.0158055, "lng": -87.84329699999999, "s_score": 0, "id": "820b714c-72c8-4a63-ad9a-1403f5883c79", "place_name": "Park Ridge"}
{"text": "How???? Are people actually thinking he is? https://t.co/pVU1XL21sD", "created_at": "Sun May 28 16:21:11 +0000 2017", "s_magnitude": 0.7, "lat": 41.708954, "lng": -87.759533, "s_score": -0.3, "id": "9a61f630-4544-41d3-94a9-59dcdcf9821d", "place_name": "Oak Lawn"}
{"text": "@GeorgeTakei Exactly. People like him only want to serve their own narrative. They do not care what facts they ignore or misinterpret.", "created_at": "Sun May 28 16:21:11 +0000 2017", "s_magnitude": 1.8, "lat": 41.8871295, "lng": -87.78990049999999, "s_score": -0.3, "id": "e2fb4b2c-bb4d-40ca-92e4-0a892537f325", "place_name": "Oak Park"}
{"text": "@kbanas The real question is why do you keep feeding them?", "created_at": "Sun May 28 16:21:15 +0000 2017", "s_magnitude": 0.1, "lat": 41.946884, "lng": -87.6851445, "s_score": -0.1, "id": "2ac57ed0-9194-44df-99ec-e6a005eb9124", "place_name": "North Center"}
{"text": "\ud83d\ude3b\ud83e\udd24\ud83e\udd24in love https://t.co/VnFVjWxZJd", "created_at": "Sun May 28 16:21:18 +0000 2017", "s_magnitude": 0.5, "lat": 41.7208135, "lng": -87.701781, "s_score": 0.5, "id": "6b98795f-6958-4a89-92e0-e49c1b9b980f", "place_name": "Evergreen Park"}
{"text": "Drinking an Imperial Smells Like Bean Spirit by @mikerphonebrew at @mikerphonebrew \u2014 https://t.co/CMIWbSkV3I", "created_at": "Sun May 28 16:21:23 +0000 2017", "s_magnitude": 0.2, "lat": 42.0119315, "lng": -87.99780799999999, "s_score": 0.2, "id": "02b3e48d-2406-4965-8adf-00a5c4d1db31", "place_name": "Elk Grove Village"}
{"text": "@SamH_25 \ud83d\ude02\ud83d\ude02\ud83d\ude02", "created_at": "Sun May 28 16:21:47 +0000 2017", "s_magnitude": 0.4, "lat": 41.646626999999995, "lng": -87.7363585, "s_score": 0.4, "id": "e22197d3-fa45-4b8c-a211-573780a6dff1", "place_name": "Crestwood"}
{"text": "Deep Dish, Round 2~ (at @LouMalnatis Pizzeria in Elk Grove Village, IL) https://t.co/ZI95JssxnS", "created_at": "Sun May 28 16:21:50 +0000 2017", "s_magnitude": 0.5, "lat": 42.0119315, "lng": -87.99780799999999, "s_score": -0.5, "id": "396e7e55-e786-4fdd-aded-e9f238e26128", "place_name": "Elk Grove Village"}
{"text": "I wonder what she means by THAT... \ud83d\ude44 https://t.co/l1bBYqOGTI", "created_at": "Sun May 28 16:22:00 +0000 2017", "s_magnitude": 0.3, "lat": 42.045437, "lng": -87.6991955, "s_score": -0.3, "id": "a526c699-b5ea-42a3-9fb5-0975a0e5ef87", "place_name": "Evanston"}
{"text": "Undermining Europe's faith in the American-led system that has brought America unprecedented propsperity doesn't co\u2026 https://t.co/FAYrWNYxoX", "created_at": "Sun May 28 16:22:20 +0000 2017", "s_magnitude": 0.4, "lat": 42.045437, "lng": -87.6991955, "s_score": 0.4, "id": "19c547d8-57b4-4455-b307-3c3a34703fee", "place_name": "Evanston"}
{"text": "this thread beyond accurate https://t.co/NBaoFhKcsM", "created_at": "Sun May 28 16:22:26 +0000 2017", "s_magnitude": 0.7, "lat": 41.9041755, "lng": -87.8638975, "s_score": 0.7, "id": "79c650a2-3e20-43f8-8f34-3c2a07cf7dc2", "place_name": "Melrose Park"}
{"text": "@GOPoversight Does #NATO know #Trump the LEAKER #leaks to his friend Philippine President Duterte https://t.co/zmGn4wug4l  2 #nuclear subs", "created_at": "Sun May 28 16:22:39 +0000 2017", "s_magnitude": 0.3, "lat": 41.9232245, "lng": -87.815934, "s_score": 0.3, "id": "475e43af-b39c-436d-8b36-c2147047f55e", "place_name": "Elmwood Park"}
{"text": "One of my pastor's favorite quotes: \"Know Jesus, know peace. No Jesus, no peace.\" @ubcreal", "created_at": "Sun May 28 16:22:40 +0000 2017", "s_magnitude": 1.3, "lat": 41.965144, "lng": -87.655153, "s_score": 0.1, "id": "2147979f-f7fc-4988-afa7-6fed762eb60e", "place_name": "Uptown Baptist Church"}
{"text": "#POC Donald Douglas leading our opening prayer as we conclude our #LessonsFromDavid sermon series! https://t.co/5ZX5zuyemN", "created_at": "Sun May 28 16:22:50 +0000 2017", "s_magnitude": 0.1, "lat": 41.851136, "lng": -87.623302, "s_score": 0.1, "id": "09816597-4f83-4e3f-9009-80271dbd14a6", "place_name": "CityPoint Community Church"}
{"text": "Can you recommend anyone for this #job in #Skokie, IL? https://t.co/9cMgawCASI #restaurant #Hiring #CareerArc", "created_at": "Sun May 28 16:22:52 +0000 2017", "s_magnitude": 0.1, "lat": 42.034116499999996, "lng": -87.74470600000001, "s_score": 0, "id": "5f172940-ed28-4307-b947-7522dc1d960e", "place_name": "Skokie"}
{"text": "Today's InsidePolitics goof (35:00) @JohnKingCNN ok w @MichaelRWarren  compare @potus SA terror opp to @potus44 Ira\u2026 https://t.co/85MLdb63Kp", "created_at": "Sun May 28 16:23:03 +0000 2017", "s_magnitude": 0.5, "lat": 42.045437, "lng": -87.6991955, "s_score": 0.5, "id": "265552e1-9403-48ed-9e58-521489b03a5f", "place_name": "Evanston"}
{"text": "Here until 4pm \ud83c\udf7a\ud83e\udd11 @ Waterfront bar and grill https://t.co/8fmc8TJess", "created_at": "Sun May 28 16:23:10 +0000 2017", "s_magnitude": 0.7, "lat": 41.637996, "lng": -87.54459, "s_score": 0.7, "id": "ccbbbe39-3487-404c-b3de-7a7c76c52dbf", "place_name": "Burnham"}
{"text": "@_deaananta_ Do you have a screenshot?", "created_at": "Sun May 28 16:23:12 +0000 2017", "s_magnitude": 0.1, "lat": 41.708954, "lng": -87.759533, "s_score": -0.1, "id": "6f6265d5-5d2a-490a-8d87-02d37408e064", "place_name": "Oak Lawn"}
{"text": "I'm at 95th &amp; Oak  Park in Oak Lawn, IL https://t.co/Vf6g0Sv5RV", "created_at": "Sun May 28 16:23:16 +0000 2017", "s_magnitude": 0.3, "lat": 41.708954, "lng": -87.759533, "s_score": 0.3, "id": "7c185cdf-b8f4-4739-9b37-4708e47c984f", "place_name": "Oak Lawn"}
{"text": "I love this place already! - Drinking a Slim Hazy by @mikerphonebrew at @mikerphonebrew  \u2014 https://t.co/8EdB6ERhfJ", "created_at": "Sun May 28 16:23:21 +0000 2017", "s_magnitude": 1.1, "lat": 42.0119315, "lng": -87.99780799999999, "s_score": 0.5, "id": "12cdd82c-0aed-47e6-8dc4-ae84916fb787", "place_name": "Elk Grove Village"}
{"text": "I'm at Village of Oak Lawn in IL https://t.co/Ppumv9QEaN", "created_at": "Sun May 28 16:23:52 +0000 2017", "s_magnitude": 0.3, "lat": 41.708954, "lng": -87.759533, "s_score": 0.3, "id": "2899e610-33b0-472d-bd27-6a0de86cb4c9", "place_name": "Oak Lawn"}
{"text": "So glad he ended up with me, a real bitch \ud83e\udd23\ud83e\udd23\ud83e\udd23\ud83d\udc80", "created_at": "Sun May 28 16:23:52 +0000 2017", "s_magnitude": 0, "lat": 41.843776, "lng": -87.75880049999999, "s_score": 0, "id": "c93334a4-be4e-4a5e-97b9-faa27d3de68a", "place_name": "Cicero"}
{"text": "mist -&gt; haze\ntemperature up 61\u00b0F -&gt; 72\u00b0F\nhumidity down 93% -&gt; 69%\nwind 6mph -&gt; 10mph", "created_at": "Sun May 28 16:23:53 +0000 2017", "s_magnitude": 0.1, "lat": 41.708954, "lng": -87.759533, "s_score": 0.1, "id": "a57b83eb-d1f5-4e1d-a25e-f2dbc25ea1b5", "place_name": "Oak Lawn"}
{"text": "\ud83d\udc98 #LesBHOOK well We're going to take it to Manike he at the end of the week when I get home what about when \"we\" get \ud83c\udfe1\nOk", "created_at": "Sun May 28 16:23:54 +0000 2017", "s_magnitude": 0.3, "lat": 41.963744, "lng": -87.823913, "s_score": 0.3, "id": "553a3dfa-2258-40b5-8d82-84f633a77461", "place_name": "Norridge"}
{"text": "@shannoncoulter #deplorable WOMEN n media Please tell me more about how much an all-woman screening of #wonderwoman\u2026 https://t.co/PJ8OEI3aAJ", "created_at": "Sun May 28 16:23:56 +0000 2017", "s_magnitude": 0.6, "lat": 41.9232245, "lng": -87.815934, "s_score": -0.6, "id": "e23dbe83-7c24-4bb4-b12e-9f30bb0bb229", "place_name": "Elmwood Park"}
{"text": "I'm at alzein pediatrics in Oak Lawn, IL https://t.co/Cnh2veCey9", "created_at": "Sun May 28 16:24:07 +0000 2017", "s_magnitude": 0.2, "lat": 41.708954, "lng": -87.759533, "s_score": 0.2, "id": "63cf3f88-3dde-4f49-be62-fe859b816673", "place_name": "Oak Lawn"}
{"text": "Waddup world", "created_at": "Sun May 28 16:24:08 +0000 2017", "s_magnitude": 0.3, "lat": 41.6661375, "lng": -87.6561945, "s_score": 0.3, "id": "4904b04d-f732-42a5-bde5-e360b63be4bb", "place_name": "Calumet Park"}
{"text": "More hurling! https://t.co/tHYKuuth9q", "created_at": "Sun May 28 16:24:12 +0000 2017", "s_magnitude": 0.2, "lat": 41.609234, "lng": -87.7547855, "s_score": 0.2, "id": "621235f3-fed6-4428-b0a7-ffabfc84e39f", "place_name": "Oak Forest"}
{"text": "Can you recommend anyone for this #job? Customer Service/Office Associate - https://t.co/LHbmcI4r45 #CustomerService #CalumetCity, IL", "created_at": "Sun May 28 16:24:13 +0000 2017", "s_magnitude": 0.4, "lat": 41.613146, "lng": -87.5520725, "s_score": 0.2, "id": "baf8bbe4-c9e6-442b-83a5-6a7923b9f595", "place_name": "Calumet City"}
{"text": "I'm at Oak Lawn Pavilion in Oak Lawn, IL https://t.co/UY2eZk9cGU", "created_at": "Sun May 28 16:24:22 +0000 2017", "s_magnitude": 0.3, "lat": 41.708954, "lng": -87.759533, "s_score": 0.3, "id": "39f3f616-d2af-43ba-8248-7997097eea72", "place_name": "Oak Lawn"}
{"text": "#chess #checkmate #bobbyfischer @ Oak Lawn Public Library https://t.co/0xZG0oK0Nk", "created_at": "Sun May 28 16:24:32 +0000 2017", "s_magnitude": 0.2, "lat": 41.708954, "lng": -87.759533, "s_score": 0.2, "id": "39466374-29f8-4c2c-943a-cadcdc17b261", "place_name": "Oak Lawn"}
{"text": "I feel like severely weakening the post-war international system that we created for our benfit should could count as an incident.", "created_at": "Sun May 28 16:24:46 +0000 2017", "s_magnitude": 0.9, "lat": 42.045437, "lng": -87.6991955, "s_score": -0.9, "id": "a17a0074-3f8f-4ed6-8fc1-696eab333934", "place_name": "Evanston"}
{"text": "@NoahQuitos Lmaoooooooooo what a time RT @NoahQuitos: Niggas really hacked the burger king menu \ud83d\ude02\ud83d\ude02\ud83d\ude02\ud83d\ude02 https://t.co/6lt0VjHy0i", "created_at": "Sun May 28 16:25:00 +0000 2017", "s_magnitude": 0.1, "lat": 41.6538775, "lng": -87.6806215, "s_score": 0.1, "id": "b19be473-f294-42b8-884a-c3699c231d83", "place_name": "Blue Island"}
{"text": "@LindsayLannen u can find me at ball so hard university I'm taking summer classes", "created_at": "Sun May 28 16:25:09 +0000 2017", "s_magnitude": 0.2, "lat": 41.609234, "lng": -87.7547855, "s_score": 0.2, "id": "e263054b-e3cf-49dd-81c2-a248662dff2c", "place_name": "Oak Forest"}
